{"type":"FeatureCollection", "features": [
{"type":"Feature","geometry":{"type":"Point","coordinates":[9.827447143358462,48.40171143012828]},"properties":{"NAME_1":"Baden-Württemberg","NAME_2":"Alb-Donau-Kreis"}},
{"type":"Feature","geometry":{"type":"Point","coordinates":[8.231762203364339,48.74852743926613]},"properties":{"NAME_1":"Baden-Württemberg","NAME_2":"Baden-Baden"}},
{"type":"Feature","geometry":{"type":"Point","coordinates":[9.7742543674202,48.10758262846678]},"properties":{"NAME_1":"Baden-Württemberg","NAME_2":"Biberach"}},
{"type":"Feature","geometry":{"type":"Point","coordinates":[8.942777301461545,48.67822562898363]},"properties":{"NAME_1":"Baden-Württemberg","NAME_2":"Böblingen"}},
{"type":"Feature","geometry":{"type":"Point","coordinates":[9.407016236734458,47.63209642600146]},"properties":{"NAME_1":"Baden-Württemberg","NAME_2":"Bodensee"}},
{"type":"Feature","geometry":{"type":"Point","coordinates":[9.400770013253863,47.73346028660001]},"properties":{"NAME_1":"Baden-Württemberg","NAME_2":"Bodenseekreis"}},
{"type":"Feature","geometry":{"type":"Point","coordinates":[7.924940896820819,47.92490935594283]},"properties":{"NAME_1":"Baden-Württemberg","NAME_2":"Breisgau-Hochschwarzwald"}},
{"type":"Feature","geometry":{"type":"Point","coordinates":[8.635769829205266,48.6789990610932]},"properties":{"NAME_1":"Baden-Württemberg","NAME_2":"Calw"}},
{"type":"Feature","geometry":{"type":"Point","coordinates":[7.897550381971499,48.148512063405256]},"properties":{"NAME_1":"Baden-Württemberg","NAME_2":"Emmendingen"}},
{"type":"Feature","geometry":{"type":"Point","coordinates":[8.737081203570304,48.91446692658975]},"properties":{"NAME_1":"Baden-Württemberg","NAME_2":"Enzkreis"}},
{"type":"Feature","geometry":{"type":"Point","coordinates":[9.369165727838118,48.64802167632127]},"properties":{"NAME_1":"Baden-Württemberg","NAME_2":"Esslingen"}},
{"type":"Feature","geometry":{"type":"Point","coordinates":[7.818075960795215,47.99252299525272]},"properties":{"NAME_1":"Baden-Württemberg","NAME_2":"Freiburg im Breisgau"}},
{"type":"Feature","geometry":{"type":"Point","coordinates":[8.46531297089782,48.47440616841262]},"properties":{"NAME_1":"Baden-Württemberg","NAME_2":"Freudenstadt"}},
{"type":"Feature","geometry":{"type":"Point","coordinates":[9.717504977044378,48.66314836037749]},"properties":{"NAME_1":"Baden-Württemberg","NAME_2":"Göppingen"}},
{"type":"Feature","geometry":{"type":"Point","coordinates":[8.694171850246127,49.4055152952496]},"properties":{"NAME_1":"Baden-Württemberg","NAME_2":"Heidelberg"}},
{"type":"Feature","geometry":{"type":"Point","coordinates":[10.18215042456237,48.66228146059713]},"properties":{"NAME_1":"Baden-Württemberg","NAME_2":"Heidenheim"}},
{"type":"Feature","geometry":{"type":"Point","coordinates":[9.190778723330912,49.17719851685528]},"properties":{"NAME_1":"Baden-Württemberg","NAME_2":"Heilbronn"}},
{"type":"Feature","geometry":{"type":"Point","coordinates":[9.182346900333359,49.15271959248668]},"properties":{"NAME_1":"Baden-Württemberg","NAME_2":"Heilbronn (Stadtkreis)"}},
{"type":"Feature","geometry":{"type":"Point","coordinates":[9.61413578140092,49.27154613886815]},"properties":{"NAME_1":"Baden-Württemberg","NAME_2":"Hohenlohekreis"}},
{"type":"Feature","geometry":{"type":"Point","coordinates":[8.562796641550243,49.08188492548855]},"properties":{"NAME_1":"Baden-Württemberg","NAME_2":"Karlsruhe"}},
{"type":"Feature","geometry":{"type":"Point","coordinates":[8.412669769325102,49.01133398603787]},"properties":{"NAME_1":"Baden-Württemberg","NAME_2":"Karlsruhe (Stadtkreis)"}},
{"type":"Feature","geometry":{"type":"Point","coordinates":[8.91576301236582,47.79321279100178]},"properties":{"NAME_1":"Baden-Württemberg","NAME_2":"Konstanz"}},
{"type":"Feature","geometry":{"type":"Point","coordinates":[7.774028827562083,47.70350402270667]},"properties":{"NAME_1":"Baden-Württemberg","NAME_2":"Lörrach"}},
{"type":"Feature","geometry":{"type":"Point","coordinates":[9.124344256169545,48.94060297905208]},"properties":{"NAME_1":"Baden-Württemberg","NAME_2":"Ludwigsburg"}},
{"type":"Feature","geometry":{"type":"Point","coordinates":[9.725088400788708,49.560700705941365]},"properties":{"NAME_1":"Baden-Württemberg","NAME_2":"Main-Tauber-Kreis"}},
{"type":"Feature","geometry":{"type":"Point","coordinates":[8.50032443749924,49.49941903642396]},"properties":{"NAME_1":"Baden-Württemberg","NAME_2":"Mannheim"}},
{"type":"Feature","geometry":{"type":"Point","coordinates":[9.280110002197313,49.46660977362664]},"properties":{"NAME_1":"Baden-Württemberg","NAME_2":"Neckar-Odenwald-Kreis"}},
{"type":"Feature","geometry":{"type":"Point","coordinates":[8.016219909763308,48.4209719356897]},"properties":{"NAME_1":"Baden-Württemberg","NAME_2":"Ortenaukreis"}},
{"type":"Feature","geometry":{"type":"Point","coordinates":[10.09015735839795,48.87752596914432]},"properties":{"NAME_1":"Baden-Württemberg","NAME_2":"Ostalbkreis"}},
{"type":"Feature","geometry":{"type":"Point","coordinates":[8.712779092802368,48.87640054740133]},"properties":{"NAME_1":"Baden-Württemberg","NAME_2":"Pforzheim"}},
{"type":"Feature","geometry":{"type":"Point","coordinates":[8.241247569019151,48.761819252803875]},"properties":{"NAME_1":"Baden-Württemberg","NAME_2":"Rastatt"}},
{"type":"Feature","geometry":{"type":"Point","coordinates":[9.779894558067388,47.825044115095544]},"properties":{"NAME_1":"Baden-Württemberg","NAME_2":"Ravensburg"}},
{"type":"Feature","geometry":{"type":"Point","coordinates":[9.501212955586166,48.899008130872474]},"properties":{"NAME_1":"Baden-Württemberg","NAME_2":"Rems-Murr-Kreis"}},
{"type":"Feature","geometry":{"type":"Point","coordinates":[9.365726298254808,48.40647635330826]},"properties":{"NAME_1":"Baden-Württemberg","NAME_2":"Reutlingen"}},
{"type":"Feature","geometry":{"type":"Point","coordinates":[8.76708442584891,49.368484933803465]},"properties":{"NAME_1":"Baden-Württemberg","NAME_2":"Rhein-Neckar-Kreis"}},
{"type":"Feature","geometry":{"type":"Point","coordinates":[8.532351332002543,48.25422029323575]},"properties":{"NAME_1":"Baden-Württemberg","NAME_2":"Rottweil"}},
{"type":"Feature","geometry":{"type":"Point","coordinates":[9.908932167507992,49.14446897081078]},"properties":{"NAME_1":"Baden-Württemberg","NAME_2":"Schwäbisch Hall"}},
{"type":"Feature","geometry":{"type":"Point","coordinates":[8.410964353980798,48.01911973840202]},"properties":{"NAME_1":"Baden-Württemberg","NAME_2":"Schwarzwald-Baar-Kreis"}},
{"type":"Feature","geometry":{"type":"Point","coordinates":[9.24100350339352,48.0391514972049]},"properties":{"NAME_1":"Baden-Württemberg","NAME_2":"Sigmaringen"}},
{"type":"Feature","geometry":{"type":"Point","coordinates":[9.17206798711372,48.77453396379556]},"properties":{"NAME_1":"Baden-Württemberg","NAME_2":"Stuttgart"}},
{"type":"Feature","geometry":{"type":"Point","coordinates":[8.987634000556955,48.48173790182007]},"properties":{"NAME_1":"Baden-Württemberg","NAME_2":"Tübingen"}},
{"type":"Feature","geometry":{"type":"Point","coordinates":[8.794136176451504,48.01120044015361]},"properties":{"NAME_1":"Baden-Württemberg","NAME_2":"Tuttlingen"}},
{"type":"Feature","geometry":{"type":"Point","coordinates":[9.950021135149557,48.39083274233481]},"properties":{"NAME_1":"Baden-Württemberg","NAME_2":"Ulm"}},
{"type":"Feature","geometry":{"type":"Point","coordinates":[8.218892391397187,47.697133474689736]},"properties":{"NAME_1":"Baden-Württemberg","NAME_2":"Waldshut"}},
{"type":"Feature","geometry":{"type":"Point","coordinates":[8.93742839888774,48.267238906734825]},"properties":{"NAME_1":"Baden-Württemberg","NAME_2":"Zollernalbkreis"}},
{"type":"Feature","geometry":{"type":"Point","coordinates":[11.052755556741845,48.42757014782235]},"properties":{"NAME_1":"Bayern","NAME_2":"Aichach-Friedberg"}},
{"type":"Feature","geometry":{"type":"Point","coordinates":[12.70528267483169,48.209804427438755]},"properties":{"NAME_1":"Bayern","NAME_2":"Altötting"}},
{"type":"Feature","geometry":{"type":"Point","coordinates":[11.84537260317015,49.450927737083475]},"properties":{"NAME_1":"Bayern","NAME_2":"Amberg"}},
{"type":"Feature","geometry":{"type":"Point","coordinates":[11.800953208388735,49.48675113186184]},"properties":{"NAME_1":"Bayern","NAME_2":"Amberg-Sulzbach"}},
{"type":"Feature","geometry":{"type":"Point","coordinates":[10.46813339427591,49.24816458292124]},"properties":{"NAME_1":"Bayern","NAME_2":"Ansbach"}},
{"type":"Feature","geometry":{"type":"Point","coordinates":[10.563669430651624,49.29218465759982]},"properties":{"NAME_1":"Bayern","NAME_2":"Ansbach (Kreisfreie Stadt)"}},
{"type":"Feature","geometry":{"type":"Point","coordinates":[9.238037457121813,50.00809310451003]},"properties":{"NAME_1":"Bayern","NAME_2":"Aschaffenburg"}},
{"type":"Feature","geometry":{"type":"Point","coordinates":[9.14581192516947,49.963856044286715]},"properties":{"NAME_1":"Bayern","NAME_2":"Aschaffenburg (Kreisfreie Stadt)"}},
{"type":"Feature","geometry":{"type":"Point","coordinates":[10.732084534636583,48.35428718334939]},"properties":{"NAME_1":"Bayern","NAME_2":"Augsburg"}},
{"type":"Feature","geometry":{"type":"Point","coordinates":[10.885505360805503,48.345570865529986]},"properties":{"NAME_1":"Bayern","NAME_2":"Augsburg (Kreisfreie Stadt)"}},
{"type":"Feature","geometry":{"type":"Point","coordinates":[9.96470110878339,50.22251394254254]},"properties":{"NAME_1":"Bayern","NAME_2":"Bad Kissingen"}},
{"type":"Feature","geometry":{"type":"Point","coordinates":[11.483115397035096,47.72747715362956]},"properties":{"NAME_1":"Bayern","NAME_2":"Bad Tölz-Wolfratshausen"}},
{"type":"Feature","geometry":{"type":"Point","coordinates":[10.883663782800134,49.89342861689749]},"properties":{"NAME_1":"Bayern","NAME_2":"Bamberg"}},
{"type":"Feature","geometry":{"type":"Point","coordinates":[10.898936251932996,49.88722213307526]},"properties":{"NAME_1":"Bayern","NAME_2":"Bamberg (Kreisfreie Stadt)"}},
{"type":"Feature","geometry":{"type":"Point","coordinates":[11.555155756738003,49.88376108856608]},"properties":{"NAME_1":"Bayern","NAME_2":"Bayreuth"}},
{"type":"Feature","geometry":{"type":"Point","coordinates":[11.584672786537753,49.93774274007172]},"properties":{"NAME_1":"Bayern","NAME_2":"Bayreuth (Kreisfreie Stadt)"}},
{"type":"Feature","geometry":{"type":"Point","coordinates":[12.901866087838078,47.698472402505395]},"properties":{"NAME_1":"Bayern","NAME_2":"Berchtesgadener Land"}},
{"type":"Feature","geometry":{"type":"Point","coordinates":[12.69547954744483,49.23706515529939]},"properties":{"NAME_1":"Bayern","NAME_2":"Cham"}},
{"type":"Feature","geometry":{"type":"Point","coordinates":[10.942326047022851,50.26788950591841]},"properties":{"NAME_1":"Bayern","NAME_2":"Coburg"}},
{"type":"Feature","geometry":{"type":"Point","coordinates":[10.964438660129561,50.26395161471595]},"properties":{"NAME_1":"Bayern","NAME_2":"Coburg (Kreisfreie Stadt)"}},
{"type":"Feature","geometry":{"type":"Point","coordinates":[11.357112810168688,48.334548259399355]},"properties":{"NAME_1":"Bayern","NAME_2":"Dachau"}},
{"type":"Feature","geometry":{"type":"Point","coordinates":[13.000725801528406,48.77870211635387]},"properties":{"NAME_1":"Bayern","NAME_2":"Deggendorf"}},
{"type":"Feature","geometry":{"type":"Point","coordinates":[10.527764167672686,48.596403797018695]},"properties":{"NAME_1":"Bayern","NAME_2":"Dillingen an der Donau"}},
{"type":"Feature","geometry":{"type":"Point","coordinates":[12.610477189738754,48.64116461819239]},"properties":{"NAME_1":"Bayern","NAME_2":"Dingolfing-Landau"}},
{"type":"Feature","geometry":{"type":"Point","coordinates":[10.712344197840306,48.806932035217024]},"properties":{"NAME_1":"Bayern","NAME_2":"Donau-Ries"}},
{"type":"Feature","geometry":{"type":"Point","coordinates":[11.913172119396013,48.07617761113543]},"properties":{"NAME_1":"Bayern","NAME_2":"Ebersberg"}},
{"type":"Feature","geometry":{"type":"Point","coordinates":[11.370387328757246,48.898087559981505]},"properties":{"NAME_1":"Bayern","NAME_2":"Eichstätt"}},
{"type":"Feature","geometry":{"type":"Point","coordinates":[12.000624698530347,48.30039708073904]},"properties":{"NAME_1":"Bayern","NAME_2":"Erding"}},
{"type":"Feature","geometry":{"type":"Point","coordinates":[10.978144962945708,49.58232921279465]},"properties":{"NAME_1":"Bayern","NAME_2":"Erlangen"}},
{"type":"Feature","geometry":{"type":"Point","coordinates":[10.914893301776575,49.6400408307667]},"properties":{"NAME_1":"Bayern","NAME_2":"Erlangen-Höchstadt"}},
{"type":"Feature","geometry":{"type":"Point","coordinates":[10.96548220664546,49.491418833331394]},"properties":{"NAME_1":"Bayern","NAME_2":"F?rth (Kreisfreie Stadt)"}},
{"type":"Feature","geometry":{"type":"Point","coordinates":[11.173131963593294,49.72099688110728]},"properties":{"NAME_1":"Bayern","NAME_2":"Forchheim"}},
{"type":"Feature","geometry":{"type":"Point","coordinates":[11.740671693017926,48.44735698022674]},"properties":{"NAME_1":"Bayern","NAME_2":"Freising"}},
{"type":"Feature","geometry":{"type":"Point","coordinates":[13.513210063826916,48.8268581707465]},"properties":{"NAME_1":"Bayern","NAME_2":"Freyung-Grafenau"}},
{"type":"Feature","geometry":{"type":"Point","coordinates":[11.20107762393165,48.18779329459452]},"properties":{"NAME_1":"Bayern","NAME_2":"Fürstenfeldbruck"}},
{"type":"Feature","geometry":{"type":"Point","coordinates":[10.849686493886036,49.4466905185553]},"properties":{"NAME_1":"Bayern","NAME_2":"Fürth"}},
{"type":"Feature","geometry":{"type":"Point","coordinates":[11.129628612240326,47.55634898054205]},"properties":{"NAME_1":"Bayern","NAME_2":"Garmisch-Partenkirchen"}},
{"type":"Feature","geometry":{"type":"Point","coordinates":[10.381131211569938,48.35281384684405]},"properties":{"NAME_1":"Bayern","NAME_2":"Günzburg"}},
{"type":"Feature","geometry":{"type":"Point","coordinates":[10.60697883459484,50.06287893252766]},"properties":{"NAME_1":"Bayern","NAME_2":"Haßberge"}},
{"type":"Feature","geometry":{"type":"Point","coordinates":[11.819192851090127,50.27321204583105]},"properties":{"NAME_1":"Bayern","NAME_2":"Hof"}},
{"type":"Feature","geometry":{"type":"Point","coordinates":[11.89726317218889,50.3107956282608]},"properties":{"NAME_1":"Bayern","NAME_2":"Hof (Kreisfreie Stadt)"}},
{"type":"Feature","geometry":{"type":"Point","coordinates":[11.39500693230838,48.75509277572589]},"properties":{"NAME_1":"Bayern","NAME_2":"Ingolstadt"}},
{"type":"Feature","geometry":{"type":"Point","coordinates":[10.616096746893172,47.87992859934475]},"properties":{"NAME_1":"Bayern","NAME_2":"Kaufbeuren"}},
{"type":"Feature","geometry":{"type":"Point","coordinates":[11.857554441696461,48.824941429077356]},"properties":{"NAME_1":"Bayern","NAME_2":"Kelheim"}},
{"type":"Feature","geometry":{"type":"Point","coordinates":[10.308118493342342,47.738184250531646]},"properties":{"NAME_1":"Bayern","NAME_2":"Kempten (Allgäu)"}},
{"type":"Feature","geometry":{"type":"Point","coordinates":[10.256062446315767,49.75322539000987]},"properties":{"NAME_1":"Bayern","NAME_2":"Kitzingen"}},
{"type":"Feature","geometry":{"type":"Point","coordinates":[11.372046640614743,50.327963228116296]},"properties":{"NAME_1":"Bayern","NAME_2":"Kronach"}},
{"type":"Feature","geometry":{"type":"Point","coordinates":[11.48229914064372,50.10264208100062]},"properties":{"NAME_1":"Bayern","NAME_2":"Kulmbach"}},
{"type":"Feature","geometry":{"type":"Point","coordinates":[10.948734677266202,48.024435376176505]},"properties":{"NAME_1":"Bayern","NAME_2":"Landsberg am Lech"}},
{"type":"Feature","geometry":{"type":"Point","coordinates":[12.195392417513393,48.55775541327257]},"properties":{"NAME_1":"Bayern","NAME_2":"Landshut"}},
{"type":"Feature","geometry":{"type":"Point","coordinates":[12.159341644781998,48.544669981904946]},"properties":{"NAME_1":"Bayern","NAME_2":"Landshut (Kreisfreie Stadt)"}},
{"type":"Feature","geometry":{"type":"Point","coordinates":[11.116921572764891,50.10933050352002]},"properties":{"NAME_1":"Bayern","NAME_2":"Lichtenfels"}},
{"type":"Feature","geometry":{"type":"Point","coordinates":[9.882861364460702,47.60516494991083]},"properties":{"NAME_1":"Bayern","NAME_2":"Lindau (Bodensee)"}},
{"type":"Feature","geometry":{"type":"Point","coordinates":[11.547244184586456,48.15321316104049]},"properties":{"NAME_1":"Bayern","NAME_2":"M?nchen (Kreisfreie Stadt)"}},
{"type":"Feature","geometry":{"type":"Point","coordinates":[9.662681662427612,49.99358223451761]},"properties":{"NAME_1":"Bayern","NAME_2":"Main-Spessart"}},
{"type":"Feature","geometry":{"type":"Point","coordinates":[10.163027676745974,47.97878748613099]},"properties":{"NAME_1":"Bayern","NAME_2":"Memmingen"}},
{"type":"Feature","geometry":{"type":"Point","coordinates":[11.808989735998592,47.74164533478001]},"properties":{"NAME_1":"Bayern","NAME_2":"Miesbach"}},
{"type":"Feature","geometry":{"type":"Point","coordinates":[9.234716587585556,49.75729058796558]},"properties":{"NAME_1":"Bayern","NAME_2":"Miltenberg"}},
{"type":"Feature","geometry":{"type":"Point","coordinates":[12.381828022248568,48.23931452431337]},"properties":{"NAME_1":"Bayern","NAME_2":"Mühldorf am Inn"}},
{"type":"Feature","geometry":{"type":"Point","coordinates":[11.631368040589692,48.07447440192951]},"properties":{"NAME_1":"Bayern","NAME_2":"München"}},
{"type":"Feature","geometry":{"type":"Point","coordinates":[10.141155808769666,48.29822654518416]},"properties":{"NAME_1":"Bayern","NAME_2":"Neu-Ulm"}},
{"type":"Feature","geometry":{"type":"Point","coordinates":[11.197210667566518,48.66442033137885]},"properties":{"NAME_1":"Bayern","NAME_2":"Neuburg-Schrobenhausen"}},
{"type":"Feature","geometry":{"type":"Point","coordinates":[11.566557919914635,49.21596140999444]},"properties":{"NAME_1":"Bayern","NAME_2":"Neumarkt in der Oberpfalz"}},
{"type":"Feature","geometry":{"type":"Point","coordinates":[10.465291666155327,49.56948359268881]},"properties":{"NAME_1":"Bayern","NAME_2":"Neustadt an der Aisch-Bad Windsheim"}},
{"type":"Feature","geometry":{"type":"Point","coordinates":[12.09825744102635,49.6865828842461]},"properties":{"NAME_1":"Bayern","NAME_2":"Neustadt an der Waldnaab"}},
{"type":"Feature","geometry":{"type":"Point","coordinates":[11.082755342230307,49.43621144886651]},"properties":{"NAME_1":"Bayern","NAME_2":"Nürnberg"}},
{"type":"Feature","geometry":{"type":"Point","coordinates":[11.369406462774137,49.4919039379844]},"properties":{"NAME_1":"Bayern","NAME_2":"Nürnberger Land"}},
{"type":"Feature","geometry":{"type":"Point","coordinates":[10.258622907408427,47.572707564064835]},"properties":{"NAME_1":"Bayern","NAME_2":"Oberallgäu"}},
{"type":"Feature","geometry":{"type":"Point","coordinates":[10.639731634098467,47.76995905922592]},"properties":{"NAME_1":"Bayern","NAME_2":"Ostallgäu"}},
{"type":"Feature","geometry":{"type":"Point","coordinates":[13.366603585244743,48.55863045311826]},"properties":{"NAME_1":"Bayern","NAME_2":"Passau"}},
{"type":"Feature","geometry":{"type":"Point","coordinates":[13.41505042206482,48.582098397901575]},"properties":{"NAME_1":"Bayern","NAME_2":"Passau (Kreisfreie Stadt)"}},
{"type":"Feature","geometry":{"type":"Point","coordinates":[11.524282705242264,48.59627517677884]},"properties":{"NAME_1":"Bayern","NAME_2":"Pfaffenhofen an der Ilm"}},
{"type":"Feature","geometry":{"type":"Point","coordinates":[13.099763788500441,49.02281441466212]},"properties":{"NAME_1":"Bayern","NAME_2":"Regen"}},
{"type":"Feature","geometry":{"type":"Point","coordinates":[12.121161229039572,49.02134332609402]},"properties":{"NAME_1":"Bayern","NAME_2":"Regensburg"}},
{"type":"Feature","geometry":{"type":"Point","coordinates":[12.113730879336538,49.01308089447004]},"properties":{"NAME_1":"Bayern","NAME_2":"Regensburg (Kreisfreie Stadt)"}},
{"type":"Feature","geometry":{"type":"Point","coordinates":[10.254907572706966,50.371312752080506]},"properties":{"NAME_1":"Bayern","NAME_2":"Rhön-Grabfeld"}},
{"type":"Feature","geometry":{"type":"Point","coordinates":[12.162753975778006,47.878379747720786]},"properties":{"NAME_1":"Bayern","NAME_2":"Rosenheim"}},
{"type":"Feature","geometry":{"type":"Point","coordinates":[12.108724751659505,47.84437771886357]},"properties":{"NAME_1":"Bayern","NAME_2":"Rosenheim (Kreisfreie Stadt)"}},
{"type":"Feature","geometry":{"type":"Point","coordinates":[11.12356540874252,49.20291708612377]},"properties":{"NAME_1":"Bayern","NAME_2":"Roth"}},
{"type":"Feature","geometry":{"type":"Point","coordinates":[12.867350432350722,48.42451986952549]},"properties":{"NAME_1":"Bayern","NAME_2":"Rottal-Inn"}},
{"type":"Feature","geometry":{"type":"Point","coordinates":[11.023512589359816,49.33562050801887]},"properties":{"NAME_1":"Bayern","NAME_2":"Schwabach"}},
{"type":"Feature","geometry":{"type":"Point","coordinates":[12.25308476225688,49.36803336050594]},"properties":{"NAME_1":"Bayern","NAME_2":"Schwandorf"}},
{"type":"Feature","geometry":{"type":"Point","coordinates":[10.259950313664191,50.016881784211606]},"properties":{"NAME_1":"Bayern","NAME_2":"Schweinfurt"}},
{"type":"Feature","geometry":{"type":"Point","coordinates":[10.220891952470312,50.047008002248425]},"properties":{"NAME_1":"Bayern","NAME_2":"Schweinfurt (Kreisfreie Stadt)"}},
{"type":"Feature","geometry":{"type":"Point","coordinates":[11.281732671735393,48.006046976939814]},"properties":{"NAME_1":"Bayern","NAME_2":"Starnberg"}},
{"type":"Feature","geometry":{"type":"Point","coordinates":[12.57347487176556,48.88075447955665]},"properties":{"NAME_1":"Bayern","NAME_2":"Straubing"}},
{"type":"Feature","geometry":{"type":"Point","coordinates":[12.582403990847217,48.89970503999144]},"properties":{"NAME_1":"Bayern","NAME_2":"Straubing-Bogen"}},
{"type":"Feature","geometry":{"type":"Point","coordinates":[12.20034183996727,49.899389008831264]},"properties":{"NAME_1":"Bayern","NAME_2":"Tirschenreuth"}},
{"type":"Feature","geometry":{"type":"Point","coordinates":[12.579575069112453,47.89454275837779]},"properties":{"NAME_1":"Bayern","NAME_2":"Traunstein"}},
{"type":"Feature","geometry":{"type":"Point","coordinates":[10.38923275668912,48.03981303510588]},"properties":{"NAME_1":"Bayern","NAME_2":"Unterallgäu"}},
{"type":"Feature","geometry":{"type":"Point","coordinates":[9.940896028805165,49.7846554256422]},"properties":{"NAME_1":"Bayern","NAME_2":"W?rzburg (Kreisfreie Stadt)"}},
{"type":"Feature","geometry":{"type":"Point","coordinates":[12.154533932564922,49.66924961230838]},"properties":{"NAME_1":"Bayern","NAME_2":"Weiden in der Oberpfalz"}},
{"type":"Feature","geometry":{"type":"Point","coordinates":[11.048336475121253,47.78753703218975]},"properties":{"NAME_1":"Bayern","NAME_2":"Weilheim-Schongau"}},
{"type":"Feature","geometry":{"type":"Point","coordinates":[10.89365913555471,49.03268583515189]},"properties":{"NAME_1":"Bayern","NAME_2":"Weißenburg-Gunzenhausen"}},
{"type":"Feature","geometry":{"type":"Point","coordinates":[12.041872106752425,50.09014053288701]},"properties":{"NAME_1":"Bayern","NAME_2":"Wunsiedel im Fichtelgebirge"}},
{"type":"Feature","geometry":{"type":"Point","coordinates":[9.927363414459355,49.73762667242492]},"properties":{"NAME_1":"Bayern","NAME_2":"Würzburg"}},
{"type":"Feature","geometry":{"type":"Point","coordinates":[13.401850244847166,52.50153158075111]},"properties":{"NAME_1":"Berlin","NAME_2":"Berlin"}},
{"type":"Feature","geometry":{"type":"Point","coordinates":[13.703731312329168,52.82322802669982]},"properties":{"NAME_1":"Brandenburg","NAME_2":"Barnim"}},
{"type":"Feature","geometry":{"type":"Point","coordinates":[12.519333783361727,52.40271508740048]},"properties":{"NAME_1":"Brandenburg","NAME_2":"Brandenburg an der Havel"}},
{"type":"Feature","geometry":{"type":"Point","coordinates":[14.36621885377195,51.77269300215323]},"properties":{"NAME_1":"Brandenburg","NAME_2":"Cottbus"}},
{"type":"Feature","geometry":{"type":"Point","coordinates":[13.819940779974594,52.0423069302533]},"properties":{"NAME_1":"Brandenburg","NAME_2":"Dahme-Spreewald"}},
{"type":"Feature","geometry":{"type":"Point","coordinates":[13.459588916782385,51.61227101673015]},"properties":{"NAME_1":"Brandenburg","NAME_2":"Elbe-Elster"}},
{"type":"Feature","geometry":{"type":"Point","coordinates":[14.490347842449983,52.32476295484424]},"properties":{"NAME_1":"Brandenburg","NAME_2":"Frankfurt (Oder)"}},
{"type":"Feature","geometry":{"type":"Point","coordinates":[12.628346914973548,52.62082081211942]},"properties":{"NAME_1":"Brandenburg","NAME_2":"Havelland"}},
{"type":"Feature","geometry":{"type":"Point","coordinates":[14.146464698802284,52.60672309091434]},"properties":{"NAME_1":"Brandenburg","NAME_2":"Märkisch-Oderland"}},
{"type":"Feature","geometry":{"type":"Point","coordinates":[13.20530221819572,52.906832645305904]},"properties":{"NAME_1":"Brandenburg","NAME_2":"Oberhavel"}},
{"type":"Feature","geometry":{"type":"Point","coordinates":[13.94361730286554,51.616300520868286]},"properties":{"NAME_1":"Brandenburg","NAME_2":"Oberspreewald-Lausitz"}},
{"type":"Feature","geometry":{"type":"Point","coordinates":[14.219059916881948,52.24400849589953]},"properties":{"NAME_1":"Brandenburg","NAME_2":"Oder-Spree"}},
{"type":"Feature","geometry":{"type":"Point","coordinates":[12.635958952012533,52.99142304252526]},"properties":{"NAME_1":"Brandenburg","NAME_2":"Ostprignitz-Ruppin"}},
{"type":"Feature","geometry":{"type":"Point","coordinates":[13.028549174870005,52.42617849298831]},"properties":{"NAME_1":"Brandenburg","NAME_2":"Potsdam"}},
{"type":"Feature","geometry":{"type":"Point","coordinates":[12.689143501990099,52.24629470495442]},"properties":{"NAME_1":"Brandenburg","NAME_2":"Potsdam-Mittelmark"}},
{"type":"Feature","geometry":{"type":"Point","coordinates":[11.961826926546744,53.1093267275862]},"properties":{"NAME_1":"Brandenburg","NAME_2":"Prignitz"}},
{"type":"Feature","geometry":{"type":"Point","coordinates":[14.433133734953424,51.75859637056632]},"properties":{"NAME_1":"Brandenburg","NAME_2":"Spree-Neiße"}},
{"type":"Feature","geometry":{"type":"Point","coordinates":[13.276018196498098,52.073184312845164]},"properties":{"NAME_1":"Brandenburg","NAME_2":"Teltow-Fläming"}},
{"type":"Feature","geometry":{"type":"Point","coordinates":[13.861299643651723,53.20590311787022]},"properties":{"NAME_1":"Brandenburg","NAME_2":"Uckermark"}},
{"type":"Feature","geometry":{"type":"Point","coordinates":[8.780493747073596,53.1195434663306]},"properties":{"NAME_1":"Bremen","NAME_2":"Bremen"}},
{"type":"Feature","geometry":{"type":"Point","coordinates":[8.588505223792092,53.53816629334872]},"properties":{"NAME_1":"Bremen","NAME_2":"Bremerhaven"}},
{"type":"Feature","geometry":{"type":"Point","coordinates":[10.020794416313834,53.54637734622113]},"properties":{"NAME_1":"Hamburg","NAME_2":"Hamburg"}},
{"type":"Feature","geometry":{"type":"Point","coordinates":[8.660116116143532,49.617701222127494]},"properties":{"NAME_1":"Hessen","NAME_2":"Bergstraße"}},
{"type":"Feature","geometry":{"type":"Point","coordinates":[8.664681555328848,49.88144614036784]},"properties":{"NAME_1":"Hessen","NAME_2":"Darmstadt"}},
{"type":"Feature","geometry":{"type":"Point","coordinates":[8.7954698795388,49.855503851340096]},"properties":{"NAME_1":"Hessen","NAME_2":"Darmstadt-Dieburg"}},
{"type":"Feature","geometry":{"type":"Point","coordinates":[8.644190394621901,50.11796810473368]},"properties":{"NAME_1":"Hessen","NAME_2":"Frankfurt am Main"}},
{"type":"Feature","geometry":{"type":"Point","coordinates":[9.759139165559088,50.56388098571267]},"properties":{"NAME_1":"Hessen","NAME_2":"Fulda"}},
{"type":"Feature","geometry":{"type":"Point","coordinates":[8.807513717329883,50.570277904783374]},"properties":{"NAME_1":"Hessen","NAME_2":"Gießen"}},
{"type":"Feature","geometry":{"type":"Point","coordinates":[8.4702524775605,49.90450860939428]},"properties":{"NAME_1":"Hessen","NAME_2":"Groß-Gerau"}},
{"type":"Feature","geometry":{"type":"Point","coordinates":[9.752932406208414,50.90618961025944]},"properties":{"NAME_1":"Hessen","NAME_2":"Hersfeld-Rotenburg"}},
{"type":"Feature","geometry":{"type":"Point","coordinates":[8.504646058315789,50.2816152548239]},"properties":{"NAME_1":"Hessen","NAME_2":"Hochtaunuskreis"}},
{"type":"Feature","geometry":{"type":"Point","coordinates":[9.407038916087124,51.40129613775989]},"properties":{"NAME_1":"Hessen","NAME_2":"Kassel"}},
{"type":"Feature","geometry":{"type":"Point","coordinates":[9.460203050674354,51.31145481395103]},"properties":{"NAME_1":"Hessen","NAME_2":"Kassel (Kreisfreie Stadt)"}},
{"type":"Feature","geometry":{"type":"Point","coordinates":[8.36532823968005,50.64826872994944]},"properties":{"NAME_1":"Hessen","NAME_2":"Lahn-Dill-Kreis"}},
{"type":"Feature","geometry":{"type":"Point","coordinates":[8.199437238596785,50.42747035405404]},"properties":{"NAME_1":"Hessen","NAME_2":"Limburg-Weilburg"}},
{"type":"Feature","geometry":{"type":"Point","coordinates":[9.286222991219214,50.24386451820365]},"properties":{"NAME_1":"Hessen","NAME_2":"Main-Kinzig-Kreis"}},
{"type":"Feature","geometry":{"type":"Point","coordinates":[8.434571215832923,50.10257891520937]},"properties":{"NAME_1":"Hessen","NAME_2":"Main-Taunus-Kreis"}},
{"type":"Feature","geometry":{"type":"Point","coordinates":[8.738043768122854,50.83686383392922]},"properties":{"NAME_1":"Hessen","NAME_2":"Marburg-Biedenkopf"}},
{"type":"Feature","geometry":{"type":"Point","coordinates":[8.979525239507607,49.6715861652568]},"properties":{"NAME_1":"Hessen","NAME_2":"Odenwaldkreis"}},
{"type":"Feature","geometry":{"type":"Point","coordinates":[8.81143914538673,50.02167746365979]},"properties":{"NAME_1":"Hessen","NAME_2":"Offenbach"}},
{"type":"Feature","geometry":{"type":"Point","coordinates":[8.780962264357246,50.09107876676307]},"properties":{"NAME_1":"Hessen","NAME_2":"Offenbach am Main"}},
{"type":"Feature","geometry":{"type":"Point","coordinates":[8.081134712361832,50.14197172121623]},"properties":{"NAME_1":"Hessen","NAME_2":"Rheingau-Taunus-Kreis"}},
{"type":"Feature","geometry":{"type":"Point","coordinates":[9.373652338764328,51.02377581936306]},"properties":{"NAME_1":"Hessen","NAME_2":"Schwalm-Eder-Kreis"}},
{"type":"Feature","geometry":{"type":"Point","coordinates":[9.271379509346463,50.63811936513124]},"properties":{"NAME_1":"Hessen","NAME_2":"Vogelsbergkreis"}},
{"type":"Feature","geometry":{"type":"Point","coordinates":[8.888884220312141,51.190687572860504]},"properties":{"NAME_1":"Hessen","NAME_2":"Waldeck-Frankenberg"}},
{"type":"Feature","geometry":{"type":"Point","coordinates":[9.92890620715929,51.19075637605258]},"properties":{"NAME_1":"Hessen","NAME_2":"Werra-Meißner-Kreis"}},
{"type":"Feature","geometry":{"type":"Point","coordinates":[8.907657059274726,50.354776478527825]},"properties":{"NAME_1":"Hessen","NAME_2":"Wetteraukreis"}},
{"type":"Feature","geometry":{"type":"Point","coordinates":[8.2603664702493,50.07915666621461]},"properties":{"NAME_1":"Hessen","NAME_2":"Wiesbaden"}},
{"type":"Feature","geometry":{"type":"Point","coordinates":[11.534141611782195,53.450047037807224]},"properties":{"NAME_1":"Mecklenburg-Vorpommern","NAME_2":"Ludwigslust-Parchim"}},
{"type":"Feature","geometry":{"type":"Point","coordinates":[13.002460620673913,53.5436927516169]},"properties":{"NAME_1":"Mecklenburg-Vorpommern","NAME_2":"Mecklenburgische Seenplatte"}},
{"type":"Feature","geometry":{"type":"Point","coordinates":[11.252109469426212,53.82151222842569]},"properties":{"NAME_1":"Mecklenburg-Vorpommern","NAME_2":"Nordwestmecklenburg"}},
{"type":"Feature","geometry":{"type":"Point","coordinates":[12.220833830751756,53.912045510280024]},"properties":{"NAME_1":"Mecklenburg-Vorpommern","NAME_2":"Rostock"}},
{"type":"Feature","geometry":{"type":"Point","coordinates":[12.141747121246292,54.14638839359917]},"properties":{"NAME_1":"Mecklenburg-Vorpommern","NAME_2":"Rostock (Kreisfreie Stadt)"}},
{"type":"Feature","geometry":{"type":"Point","coordinates":[11.416529949978287,53.621510052088375]},"properties":{"NAME_1":"Mecklenburg-Vorpommern","NAME_2":"Schwerin"}},
{"type":"Feature","geometry":{"type":"Point","coordinates":[13.802882187595868,53.7906938286048]},"properties":{"NAME_1":"Mecklenburg-Vorpommern","NAME_2":"Vorpommern-Greifswald"}},
{"type":"Feature","geometry":{"type":"Point","coordinates":[12.991525415756614,54.28420295213592]},"properties":{"NAME_1":"Mecklenburg-Vorpommern","NAME_2":"Vorpommern-Rügen"}},
{"type":"Feature","geometry":{"type":"Point","coordinates":[8.013262265914111,53.21848817365359]},"properties":{"NAME_1":"Niedersachsen","NAME_2":"Ammerland"}},
{"type":"Feature","geometry":{"type":"Point","coordinates":[7.3680895802427075,53.49643076891535]},"properties":{"NAME_1":"Niedersachsen","NAME_2":"Aurich"}},
{"type":"Feature","geometry":{"type":"Point","coordinates":[10.524108055412677,52.27522109245869]},"properties":{"NAME_1":"Niedersachsen","NAME_2":"Braunschweig"}},
{"type":"Feature","geometry":{"type":"Point","coordinates":[10.103566164355481,52.71334323178447]},"properties":{"NAME_1":"Niedersachsen","NAME_2":"Celle"}},
{"type":"Feature","geometry":{"type":"Point","coordinates":[7.904713938096495,52.911029019472714]},"properties":{"NAME_1":"Niedersachsen","NAME_2":"Cloppenburg"}},
{"type":"Feature","geometry":{"type":"Point","coordinates":[8.81238237197221,53.61658650479898]},"properties":{"NAME_1":"Niedersachsen","NAME_2":"Cuxhaven"}},
{"type":"Feature","geometry":{"type":"Point","coordinates":[8.645682931052102,53.0494043990591]},"properties":{"NAME_1":"Niedersachsen","NAME_2":"Delmenhorst"}},
{"type":"Feature","geometry":{"type":"Point","coordinates":[8.70179913596038,52.72848577938727]},"properties":{"NAME_1":"Niedersachsen","NAME_2":"Diepholz"}},
{"type":"Feature","geometry":{"type":"Point","coordinates":[7.181584115105224,53.36067906733596]},"properties":{"NAME_1":"Niedersachsen","NAME_2":"Emden"}},
{"type":"Feature","geometry":{"type":"Point","coordinates":[7.40268865144066,52.73829701603401]},"properties":{"NAME_1":"Niedersachsen","NAME_2":"Emsland"}},
{"type":"Feature","geometry":{"type":"Point","coordinates":[7.983247461901478,53.51036297343629]},"properties":{"NAME_1":"Niedersachsen","NAME_2":"Friesland"}},
{"type":"Feature","geometry":{"type":"Point","coordinates":[10.604170460090595,52.58025623082947]},"properties":{"NAME_1":"Niedersachsen","NAME_2":"Gifhorn"}},
{"type":"Feature","geometry":{"type":"Point","coordinates":[10.400392666935192,51.87467715773118]},"properties":{"NAME_1":"Niedersachsen","NAME_2":"Goslar"}},
{"type":"Feature","geometry":{"type":"Point","coordinates":[9.926235131063791,51.49893902035705]},"properties":{"NAME_1":"Niedersachsen","NAME_2":"Göttingen"}},
{"type":"Feature","geometry":{"type":"Point","coordinates":[7.019856761651405,52.47605340904667]},"properties":{"NAME_1":"Niedersachsen","NAME_2":"Grafschaft Bentheim"}},
{"type":"Feature","geometry":{"type":"Point","coordinates":[9.389895450887012,52.09513818963721]},"properties":{"NAME_1":"Niedersachsen","NAME_2":"Hameln-Pyrmont"}},
{"type":"Feature","geometry":{"type":"Point","coordinates":[9.962738848622436,53.31577341624263]},"properties":{"NAME_1":"Niedersachsen","NAME_2":"Harburg"}},
{"type":"Feature","geometry":{"type":"Point","coordinates":[9.76941135914113,52.92833009182903]},"properties":{"NAME_1":"Niedersachsen","NAME_2":"Heidekreis"}},
{"type":"Feature","geometry":{"type":"Point","coordinates":[10.88883871741833,52.26074433476724]},"properties":{"NAME_1":"Niedersachsen","NAME_2":"Helmstedt"}},
{"type":"Feature","geometry":{"type":"Point","coordinates":[9.943480971959822,52.09021899813921]},"properties":{"NAME_1":"Niedersachsen","NAME_2":"Hildesheim"}},
{"type":"Feature","geometry":{"type":"Point","coordinates":[9.55140268952,51.880632575304354]},"properties":{"NAME_1":"Niedersachsen","NAME_2":"Holzminden"}},
{"type":"Feature","geometry":{"type":"Point","coordinates":[7.469761640798772,53.24354173517638]},"properties":{"NAME_1":"Niedersachsen","NAME_2":"Leer"}},
{"type":"Feature","geometry":{"type":"Point","coordinates":[11.122919894445452,53.01987171746864]},"properties":{"NAME_1":"Niedersachsen","NAME_2":"Lüchow-Dannenberg"}},
{"type":"Feature","geometry":{"type":"Point","coordinates":[10.57325692428728,53.23257534485517]},"properties":{"NAME_1":"Niedersachsen","NAME_2":"Lüneburg"}},
{"type":"Feature","geometry":{"type":"Point","coordinates":[9.114312927628392,52.60922281171145]},"properties":{"NAME_1":"Niedersachsen","NAME_2":"Nienburg (Weser)"}},
{"type":"Feature","geometry":{"type":"Point","coordinates":[9.84800893091832,51.74258733253189]},"properties":{"NAME_1":"Niedersachsen","NAME_2":"Northeim"}},
{"type":"Feature","geometry":{"type":"Point","coordinates":[8.389396566065573,52.98807690744384]},"properties":{"NAME_1":"Niedersachsen","NAME_2":"Oldenburg"}},
{"type":"Feature","geometry":{"type":"Point","coordinates":[8.224359040855726,53.14457816991481]},"properties":{"NAME_1":"Niedersachsen","NAME_2":"Oldenburg (Kreisfreie Stadt)"}},
{"type":"Feature","geometry":{"type":"Point","coordinates":[8.047032910010682,52.27767981838127]},"properties":{"NAME_1":"Niedersachsen","NAME_2":"Osnabr?ck (Kreisfreie Stadt)"}},
{"type":"Feature","geometry":{"type":"Point","coordinates":[8.045157342082383,52.38161392417267]},"properties":{"NAME_1":"Niedersachsen","NAME_2":"Osnabrück"}},
{"type":"Feature","geometry":{"type":"Point","coordinates":[8.808080930755779,53.251006725172836]},"properties":{"NAME_1":"Niedersachsen","NAME_2":"Osterholz"}},
{"type":"Feature","geometry":{"type":"Point","coordinates":[10.371446621144802,51.6779646607709]},"properties":{"NAME_1":"Niedersachsen","NAME_2":"Osterode am Harz"}},
{"type":"Feature","geometry":{"type":"Point","coordinates":[10.255287808854675,52.30419132804737]},"properties":{"NAME_1":"Niedersachsen","NAME_2":"Peine"}},
{"type":"Feature","geometry":{"type":"Point","coordinates":[9.719799048214067,52.421937069443366]},"properties":{"NAME_1":"Niedersachsen","NAME_2":"Region Hannover"}},
{"type":"Feature","geometry":{"type":"Point","coordinates":[9.306584837679829,53.25075839404322]},"properties":{"NAME_1":"Niedersachsen","NAME_2":"Rotenburg (Wümme)"}},
{"type":"Feature","geometry":{"type":"Point","coordinates":[10.370726234055255,52.1244744417412]},"properties":{"NAME_1":"Niedersachsen","NAME_2":"Salzgitter"}},
{"type":"Feature","geometry":{"type":"Point","coordinates":[9.206561904675493,52.29279232546909]},"properties":{"NAME_1":"Niedersachsen","NAME_2":"Schaumburg"}},
{"type":"Feature","geometry":{"type":"Point","coordinates":[9.418070390070337,53.57897622594598]},"properties":{"NAME_1":"Niedersachsen","NAME_2":"Stade"}},
{"type":"Feature","geometry":{"type":"Point","coordinates":[10.547581053455811,52.983634941664256]},"properties":{"NAME_1":"Niedersachsen","NAME_2":"Uelzen"}},
{"type":"Feature","geometry":{"type":"Point","coordinates":[8.223057943133892,52.660290150909404]},"properties":{"NAME_1":"Niedersachsen","NAME_2":"Vechta"}},
{"type":"Feature","geometry":{"type":"Point","coordinates":[9.175464499724015,52.973235647083165]},"properties":{"NAME_1":"Niedersachsen","NAME_2":"Verden"}},
{"type":"Feature","geometry":{"type":"Point","coordinates":[8.388646230647746,53.35764176168911]},"properties":{"NAME_1":"Niedersachsen","NAME_2":"Wesermarsch"}},
{"type":"Feature","geometry":{"type":"Point","coordinates":[8.086204629630613,53.56594481468199]},"properties":{"NAME_1":"Niedersachsen","NAME_2":"Wilhelmshaven"}},
{"type":"Feature","geometry":{"type":"Point","coordinates":[7.706123552174438,53.57341373701895]},"properties":{"NAME_1":"Niedersachsen","NAME_2":"Wittmund"}},
{"type":"Feature","geometry":{"type":"Point","coordinates":[10.583953794933027,52.12699751652003]},"properties":{"NAME_1":"Niedersachsen","NAME_2":"Wolfenbüttel"}},
{"type":"Feature","geometry":{"type":"Point","coordinates":[10.784870766361044,52.41074739281494]},"properties":{"NAME_1":"Niedersachsen","NAME_2":"Wolfsburg"}},
{"type":"Feature","geometry":{"type":"Point","coordinates":[8.540743896376156,52.010948623696386]},"properties":{"NAME_1":"Nordrhein-Westfalen","NAME_2":"Bielefeld"}},
{"type":"Feature","geometry":{"type":"Point","coordinates":[7.224935231305652,51.4699273720015]},"properties":{"NAME_1":"Nordrhein-Westfalen","NAME_2":"Bochum"}},
{"type":"Feature","geometry":{"type":"Point","coordinates":[7.109839409848921,50.70573461757433]},"properties":{"NAME_1":"Nordrhein-Westfalen","NAME_2":"Bonn"}},
{"type":"Feature","geometry":{"type":"Point","coordinates":[6.899615613071116,51.96131983573316]},"properties":{"NAME_1":"Nordrhein-Westfalen","NAME_2":"Borken"}},
{"type":"Feature","geometry":{"type":"Point","coordinates":[6.920116177608562,51.57169382530615]},"properties":{"NAME_1":"Nordrhein-Westfalen","NAME_2":"Bottrop"}},
{"type":"Feature","geometry":{"type":"Point","coordinates":[7.366012233489371,51.8668510415719]},"properties":{"NAME_1":"Nordrhein-Westfalen","NAME_2":"Coesfeld"}},
{"type":"Feature","geometry":{"type":"Point","coordinates":[7.474900904820547,51.51607757141338]},"properties":{"NAME_1":"Nordrhein-Westfalen","NAME_2":"Dortmund"}},
{"type":"Feature","geometry":{"type":"Point","coordinates":[6.734691850689849,51.43961576915757]},"properties":{"NAME_1":"Nordrhein-Westfalen","NAME_2":"Duisburg"}},
{"type":"Feature","geometry":{"type":"Point","coordinates":[6.445561610241274,50.817895054702454]},"properties":{"NAME_1":"Nordrhein-Westfalen","NAME_2":"Düren"}},
{"type":"Feature","geometry":{"type":"Point","coordinates":[6.810202624113212,51.2354569590266]},"properties":{"NAME_1":"Nordrhein-Westfalen","NAME_2":"Düsseldorf"}},
{"type":"Feature","geometry":{"type":"Point","coordinates":[7.32402933336682,51.34684479216592]},"properties":{"NAME_1":"Nordrhein-Westfalen","NAME_2":"Ennepe-Ruhr-Kreis"}},
{"type":"Feature","geometry":{"type":"Point","coordinates":[7.017153915949606,51.43383276631231]},"properties":{"NAME_1":"Nordrhein-Westfalen","NAME_2":"Essen"}},
{"type":"Feature","geometry":{"type":"Point","coordinates":[6.644151912314188,50.536473166732314]},"properties":{"NAME_1":"Nordrhein-Westfalen","NAME_2":"Euskirchen"}},
{"type":"Feature","geometry":{"type":"Point","coordinates":[7.071240236986879,51.55395642184194]},"properties":{"NAME_1":"Nordrhein-Westfalen","NAME_2":"Gelsenkirchen"}},
{"type":"Feature","geometry":{"type":"Point","coordinates":[8.351386052765799,51.93170893394623]},"properties":{"NAME_1":"Nordrhein-Westfalen","NAME_2":"Gütersloh"}},
{"type":"Feature","geometry":{"type":"Point","coordinates":[7.497555537710626,51.348045073472036]},"properties":{"NAME_1":"Nordrhein-Westfalen","NAME_2":"Hagen"}},
{"type":"Feature","geometry":{"type":"Point","coordinates":[7.823586192588914,51.6651743977014]},"properties":{"NAME_1":"Nordrhein-Westfalen","NAME_2":"Hamm"}},
{"type":"Feature","geometry":{"type":"Point","coordinates":[6.164112924265687,51.04934890734639]},"properties":{"NAME_1":"Nordrhein-Westfalen","NAME_2":"Heinsberg"}},
{"type":"Feature","geometry":{"type":"Point","coordinates":[8.643931638807986,52.167577806700315]},"properties":{"NAME_1":"Nordrhein-Westfalen","NAME_2":"Herford"}},
{"type":"Feature","geometry":{"type":"Point","coordinates":[7.208557616111534,51.537533235578735]},"properties":{"NAME_1":"Nordrhein-Westfalen","NAME_2":"Herne"}},
{"type":"Feature","geometry":{"type":"Point","coordinates":[8.385079866438575,51.306825380560184]},"properties":{"NAME_1":"Nordrhein-Westfalen","NAME_2":"Hochsauerlandkreis"}},
{"type":"Feature","geometry":{"type":"Point","coordinates":[9.17809149827259,51.68494073967834]},"properties":{"NAME_1":"Nordrhein-Westfalen","NAME_2":"Höxter"}},
{"type":"Feature","geometry":{"type":"Point","coordinates":[6.258809084598065,51.652363131398445]},"properties":{"NAME_1":"Nordrhein-Westfalen","NAME_2":"Kleve"}},
{"type":"Feature","geometry":{"type":"Point","coordinates":[6.973218551701415,50.94566687948]},"properties":{"NAME_1":"Nordrhein-Westfalen","NAME_2":"Köln"}},
{"type":"Feature","geometry":{"type":"Point","coordinates":[6.57966800690738,51.3452191426595]},"properties":{"NAME_1":"Nordrhein-Westfalen","NAME_2":"Krefeld"}},
{"type":"Feature","geometry":{"type":"Point","coordinates":[7.015474110588747,51.05306626012641]},"properties":{"NAME_1":"Nordrhein-Westfalen","NAME_2":"Leverkusen"}},
{"type":"Feature","geometry":{"type":"Point","coordinates":[8.950837272155358,51.981422653865046]},"properties":{"NAME_1":"Nordrhein-Westfalen","NAME_2":"Lippe"}},
{"type":"Feature","geometry":{"type":"Point","coordinates":[7.713008098535883,51.262611442149996]},"properties":{"NAME_1":"Nordrhein-Westfalen","NAME_2":"Märkischer Kreis"}},
{"type":"Feature","geometry":{"type":"Point","coordinates":[6.96906518323116,51.257104354262545]},"properties":{"NAME_1":"Nordrhein-Westfalen","NAME_2":"Mettmann"}},
{"type":"Feature","geometry":{"type":"Point","coordinates":[8.739348392682848,52.3524754984698]},"properties":{"NAME_1":"Nordrhein-Westfalen","NAME_2":"Minden-Lübbecke"}},
{"type":"Feature","geometry":{"type":"Point","coordinates":[6.411974474135345,51.16719359839787]},"properties":{"NAME_1":"Nordrhein-Westfalen","NAME_2":"Mönchengladbach"}},
{"type":"Feature","geometry":{"type":"Point","coordinates":[6.8784616214255125,51.41378149310733]},"properties":{"NAME_1":"Nordrhein-Westfalen","NAME_2":"Mülheim an der Ruhr"}},
{"type":"Feature","geometry":{"type":"Point","coordinates":[7.623646794777841,51.95431678626834]},"properties":{"NAME_1":"Nordrhein-Westfalen","NAME_2":"Münster"}},
{"type":"Feature","geometry":{"type":"Point","coordinates":[7.516628816871094,51.012709197332974]},"properties":{"NAME_1":"Nordrhein-Westfalen","NAME_2":"Oberbergischer Kreis"}},
{"type":"Feature","geometry":{"type":"Point","coordinates":[6.847120498632319,51.513131351748726]},"properties":{"NAME_1":"Nordrhein-Westfalen","NAME_2":"Oberhausen"}},
{"type":"Feature","geometry":{"type":"Point","coordinates":[7.976477265686084,51.086159588345915]},"properties":{"NAME_1":"Nordrhein-Westfalen","NAME_2":"Olpe"}},
{"type":"Feature","geometry":{"type":"Point","coordinates":[8.719635033590464,51.66417545601529]},"properties":{"NAME_1":"Nordrhein-Westfalen","NAME_2":"Paderborn"}},
{"type":"Feature","geometry":{"type":"Point","coordinates":[7.159248938728983,51.67248391586348]},"properties":{"NAME_1":"Nordrhein-Westfalen","NAME_2":"Recklinghausen"}},
{"type":"Feature","geometry":{"type":"Point","coordinates":[7.2241156520707435,51.18269330394417]},"properties":{"NAME_1":"Nordrhein-Westfalen","NAME_2":"Remscheid"}},
{"type":"Feature","geometry":{"type":"Point","coordinates":[6.716491020059949,50.90493302850454]},"properties":{"NAME_1":"Nordrhein-Westfalen","NAME_2":"Rhein-Erft-Kreis"}},
{"type":"Feature","geometry":{"type":"Point","coordinates":[6.649323167594821,51.14357123607346]},"properties":{"NAME_1":"Nordrhein-Westfalen","NAME_2":"Rhein-Kreis Neuss"}},
{"type":"Feature","geometry":{"type":"Point","coordinates":[7.234573027991161,50.760638913401834]},"properties":{"NAME_1":"Nordrhein-Westfalen","NAME_2":"Rhein-Sieg-Kreis"}},
{"type":"Feature","geometry":{"type":"Point","coordinates":[7.194846538471272,51.02300442584596]},"properties":{"NAME_1":"Nordrhein-Westfalen","NAME_2":"Rheinisch-Bergischer Kreis"}},
{"type":"Feature","geometry":{"type":"Point","coordinates":[8.195170268744214,50.93773864461953]},"properties":{"NAME_1":"Nordrhein-Westfalen","NAME_2":"Siegen-Wittgenstein"}},
{"type":"Feature","geometry":{"type":"Point","coordinates":[8.217437437399012,51.5644104977155]},"properties":{"NAME_1":"Nordrhein-Westfalen","NAME_2":"Soest"}},
{"type":"Feature","geometry":{"type":"Point","coordinates":[7.06606973349798,51.16245515773001]},"properties":{"NAME_1":"Nordrhein-Westfalen","NAME_2":"Solingen"}},
{"type":"Feature","geometry":{"type":"Point","coordinates":[6.216727217808469,50.727504613497324]},"properties":{"NAME_1":"Nordrhein-Westfalen","NAME_2":"Städteregion Aachen"}},
{"type":"Feature","geometry":{"type":"Point","coordinates":[7.579446712541359,52.21153667823878]},"properties":{"NAME_1":"Nordrhein-Westfalen","NAME_2":"Steinfurt"}},
{"type":"Feature","geometry":{"type":"Point","coordinates":[7.636444584513528,51.57857453670863]},"properties":{"NAME_1":"Nordrhein-Westfalen","NAME_2":"Unna"}},
{"type":"Feature","geometry":{"type":"Point","coordinates":[6.326120514106121,51.2828202387204]},"properties":{"NAME_1":"Nordrhein-Westfalen","NAME_2":"Viersen"}},
{"type":"Feature","geometry":{"type":"Point","coordinates":[7.958294931706257,51.87022279386228]},"properties":{"NAME_1":"Nordrhein-Westfalen","NAME_2":"Warendorf"}},
{"type":"Feature","geometry":{"type":"Point","coordinates":[6.6183626288940856,51.6270425398961]},"properties":{"NAME_1":"Nordrhein-Westfalen","NAME_2":"Wesel"}},
{"type":"Feature","geometry":{"type":"Point","coordinates":[7.168930082504247,51.250603611093084]},"properties":{"NAME_1":"Nordrhein-Westfalen","NAME_2":"Wuppertal"}},
{"type":"Feature","geometry":{"type":"Point","coordinates":[7.044976439262861,50.46758532179691]},"properties":{"NAME_1":"Rheinland-Pfalz","NAME_2":"Ahrweiler"}},
{"type":"Feature","geometry":{"type":"Point","coordinates":[7.744125260242445,50.750747657477824]},"properties":{"NAME_1":"Rheinland-Pfalz","NAME_2":"Altenkirchen (Westerwald)"}},
{"type":"Feature","geometry":{"type":"Point","coordinates":[8.157185021052538,49.75944139446678]},"properties":{"NAME_1":"Rheinland-Pfalz","NAME_2":"Alzey-Worms"}},
{"type":"Feature","geometry":{"type":"Point","coordinates":[8.110304937016997,49.45302059760405]},"properties":{"NAME_1":"Rheinland-Pfalz","NAME_2":"Bad Dürkheim"}},
{"type":"Feature","geometry":{"type":"Point","coordinates":[7.686664991470585,49.82482040546623]},"properties":{"NAME_1":"Rheinland-Pfalz","NAME_2":"Bad Kreuznach"}},
{"type":"Feature","geometry":{"type":"Point","coordinates":[6.9672186214680405,49.92464518198918]},"properties":{"NAME_1":"Rheinland-Pfalz","NAME_2":"Bernkastel-Wittlich"}},
{"type":"Feature","geometry":{"type":"Point","coordinates":[7.2776545981223695,49.71254038952687]},"properties":{"NAME_1":"Rheinland-Pfalz","NAME_2":"Birkenfeld"}},
{"type":"Feature","geometry":{"type":"Point","coordinates":[7.174319965278336,50.132880006106014]},"properties":{"NAME_1":"Rheinland-Pfalz","NAME_2":"Cochem-Zell"}},
{"type":"Feature","geometry":{"type":"Point","coordinates":[7.91501132662098,49.63198305210163]},"properties":{"NAME_1":"Rheinland-Pfalz","NAME_2":"Donnersbergkreis"}},
{"type":"Feature","geometry":{"type":"Point","coordinates":[6.410129964900426,50.06215977320676]},"properties":{"NAME_1":"Rheinland-Pfalz","NAME_2":"Eifelkreis Bitburg-Prüm"}},
{"type":"Feature","geometry":{"type":"Point","coordinates":[8.356883798102404,49.53306402828587]},"properties":{"NAME_1":"Rheinland-Pfalz","NAME_2":"Frankenthal (Pfalz)"}},
{"type":"Feature","geometry":{"type":"Point","coordinates":[8.246193769840533,49.11590817360518]},"properties":{"NAME_1":"Rheinland-Pfalz","NAME_2":"Germersheim"}},
{"type":"Feature","geometry":{"type":"Point","coordinates":[7.6849815724975485,49.446222318203226]},"properties":{"NAME_1":"Rheinland-Pfalz","NAME_2":"Kaiserslautern"}},
{"type":"Feature","geometry":{"type":"Point","coordinates":[7.760674747930701,49.432852602128]},"properties":{"NAME_1":"Rheinland-Pfalz","NAME_2":"Kaiserslautern (Kreisfreie Stadt)"}},
{"type":"Feature","geometry":{"type":"Point","coordinates":[7.579551023765089,50.348516061151805]},"properties":{"NAME_1":"Rheinland-Pfalz","NAME_2":"Koblenz"}},
{"type":"Feature","geometry":{"type":"Point","coordinates":[7.471320282153371,49.54981085575539]},"properties":{"NAME_1":"Rheinland-Pfalz","NAME_2":"Kusel"}},
{"type":"Feature","geometry":{"type":"Point","coordinates":[8.050600758110559,49.224493882594714]},"properties":{"NAME_1":"Rheinland-Pfalz","NAME_2":"Landau in der Pfalz"}},
{"type":"Feature","geometry":{"type":"Point","coordinates":[8.39684453618818,49.48208766550473]},"properties":{"NAME_1":"Rheinland-Pfalz","NAME_2":"Ludwigshafen am Rhein"}},
{"type":"Feature","geometry":{"type":"Point","coordinates":[8.241497084234965,49.97418652248363]},"properties":{"NAME_1":"Rheinland-Pfalz","NAME_2":"Mainz"}},
{"type":"Feature","geometry":{"type":"Point","coordinates":[8.079648749775714,49.922013883066874]},"properties":{"NAME_1":"Rheinland-Pfalz","NAME_2":"Mainz-Bingen"}},
{"type":"Feature","geometry":{"type":"Point","coordinates":[7.332169431299249,50.33160786535972]},"properties":{"NAME_1":"Rheinland-Pfalz","NAME_2":"Mayen-Koblenz"}},
{"type":"Feature","geometry":{"type":"Point","coordinates":[8.152287859733955,49.34187581912948]},"properties":{"NAME_1":"Rheinland-Pfalz","NAME_2":"Neustadt an der Weinstraße"}},
{"type":"Feature","geometry":{"type":"Point","coordinates":[7.469000649671078,50.55770054585365]},"properties":{"NAME_1":"Rheinland-Pfalz","NAME_2":"Neuwied"}},
{"type":"Feature","geometry":{"type":"Point","coordinates":[7.594363165450265,49.19712708526885]},"properties":{"NAME_1":"Rheinland-Pfalz","NAME_2":"Pirmasens"}},
{"type":"Feature","geometry":{"type":"Point","coordinates":[7.500099712396102,50.04420982092897]},"properties":{"NAME_1":"Rheinland-Pfalz","NAME_2":"Rhein-Hunsrück-Kreis"}},
{"type":"Feature","geometry":{"type":"Point","coordinates":[7.84270993625603,50.26328174452834]},"properties":{"NAME_1":"Rheinland-Pfalz","NAME_2":"Rhein-Lahn-Kreis"}},
{"type":"Feature","geometry":{"type":"Point","coordinates":[8.360681086500126,49.41664998260066]},"properties":{"NAME_1":"Rheinland-Pfalz","NAME_2":"Rhein-Pfalz-Kreis"}},
{"type":"Feature","geometry":{"type":"Point","coordinates":[8.435019748938661,49.32971813767909]},"properties":{"NAME_1":"Rheinland-Pfalz","NAME_2":"Speyer"}},
{"type":"Feature","geometry":{"type":"Point","coordinates":[8.048076004491508,49.19038234376127]},"properties":{"NAME_1":"Rheinland-Pfalz","NAME_2":"Südliche Weinstraße"}},
{"type":"Feature","geometry":{"type":"Point","coordinates":[7.658867190189477,49.208274736616474]},"properties":{"NAME_1":"Rheinland-Pfalz","NAME_2":"Südwestpfalz"}},
{"type":"Feature","geometry":{"type":"Point","coordinates":[6.655051021176946,49.76293883158128]},"properties":{"NAME_1":"Rheinland-Pfalz","NAME_2":"Trier"}},
{"type":"Feature","geometry":{"type":"Point","coordinates":[6.695195596493762,49.69647113340813]},"properties":{"NAME_1":"Rheinland-Pfalz","NAME_2":"Trier-Saarburg"}},
{"type":"Feature","geometry":{"type":"Point","coordinates":[6.748653731910329,50.23833585177531]},"properties":{"NAME_1":"Rheinland-Pfalz","NAME_2":"Vulkaneifel"}},
{"type":"Feature","geometry":{"type":"Point","coordinates":[7.865681371823632,50.55234937066502]},"properties":{"NAME_1":"Rheinland-Pfalz","NAME_2":"Westerwaldkreis"}},
{"type":"Feature","geometry":{"type":"Point","coordinates":[8.324528630989036,49.64944553344045]},"properties":{"NAME_1":"Rheinland-Pfalz","NAME_2":"Worms"}},
{"type":"Feature","geometry":{"type":"Point","coordinates":[7.365393890382328,49.248160693617116]},"properties":{"NAME_1":"Rheinland-Pfalz","NAME_2":"Zweibrücken"}},
{"type":"Feature","geometry":{"type":"Point","coordinates":[6.680484797569987,49.49576456105012]},"properties":{"NAME_1":"Saarland","NAME_2":"Merzig-Wadern"}},
{"type":"Feature","geometry":{"type":"Point","coordinates":[7.117203207244864,49.3757016518191]},"properties":{"NAME_1":"Saarland","NAME_2":"Neunkirchen"}},
{"type":"Feature","geometry":{"type":"Point","coordinates":[6.957296528770143,49.25138239449782]},"properties":{"NAME_1":"Saarland","NAME_2":"Regionalverband Saarbrücken"}},
{"type":"Feature","geometry":{"type":"Point","coordinates":[6.775543339754429,49.355341547654874]},"properties":{"NAME_1":"Saarland","NAME_2":"Saarlouis"}},
{"type":"Feature","geometry":{"type":"Point","coordinates":[7.242221248830099,49.24869938597979]},"properties":{"NAME_1":"Saarland","NAME_2":"Saarpfalz-Kreis"}},
{"type":"Feature","geometry":{"type":"Point","coordinates":[7.100433245133715,49.51957310822302]},"properties":{"NAME_1":"Saarland","NAME_2":"St. Wendel"}},
{"type":"Feature","geometry":{"type":"Point","coordinates":[14.231008523488443,51.26891358496026]},"properties":{"NAME_1":"Sachsen","NAME_2":"Bautzen"}},
{"type":"Feature","geometry":{"type":"Point","coordinates":[12.911829900586664,50.82630369397092]},"properties":{"NAME_1":"Sachsen","NAME_2":"Chemnitz"}},
{"type":"Feature","geometry":{"type":"Point","coordinates":[13.783449073922455,51.066444292077946]},"properties":{"NAME_1":"Sachsen","NAME_2":"Dresden"}},
{"type":"Feature","geometry":{"type":"Point","coordinates":[12.945072474309326,50.6088984199669]},"properties":{"NAME_1":"Sachsen","NAME_2":"Erzgebirgskreis"}},
{"type":"Feature","geometry":{"type":"Point","coordinates":[14.750808209969396,51.22561595666324]},"properties":{"NAME_1":"Sachsen","NAME_2":"Görlitz"}},
{"type":"Feature","geometry":{"type":"Point","coordinates":[12.599490865952811,51.22143667317375]},"properties":{"NAME_1":"Sachsen","NAME_2":"Leipzig"}},
{"type":"Feature","geometry":{"type":"Point","coordinates":[12.374771760307615,51.34223859941935]},"properties":{"NAME_1":"Sachsen","NAME_2":"Leipzig (Kreisfreie Stadt)"}},
{"type":"Feature","geometry":{"type":"Point","coordinates":[13.48290068252268,51.23939774808981]},"properties":{"NAME_1":"Sachsen","NAME_2":"Meißen"}},
{"type":"Feature","geometry":{"type":"Point","coordinates":[13.1375068134252,50.95581664001017]},"properties":{"NAME_1":"Sachsen","NAME_2":"Mittelsachsen"}},
{"type":"Feature","geometry":{"type":"Point","coordinates":[12.779396758535746,51.472865080011836]},"properties":{"NAME_1":"Sachsen","NAME_2":"Nordsachsen"}},
{"type":"Feature","geometry":{"type":"Point","coordinates":[13.873434050112229,50.91671794210189]},"properties":{"NAME_1":"Sachsen","NAME_2":"Sächsische Schweiz-Osterzgebirge"}},
{"type":"Feature","geometry":{"type":"Point","coordinates":[12.234999618512575,50.456792939759524]},"properties":{"NAME_1":"Sachsen","NAME_2":"Vogtlandkreis"}},
{"type":"Feature","geometry":{"type":"Point","coordinates":[12.525805507788208,50.75077479618516]},"properties":{"NAME_1":"Sachsen","NAME_2":"Zwickau"}},
{"type":"Feature","geometry":{"type":"Point","coordinates":[11.227045274410369,52.68004816044799]},"properties":{"NAME_1":"Sachsen-Anhalt","NAME_2":"Altmarkkreis Salzwedel"}},
{"type":"Feature","geometry":{"type":"Point","coordinates":[12.143202067097246,51.79544502529258]},"properties":{"NAME_1":"Sachsen-Anhalt","NAME_2":"Anhalt-Bitterfeld"}},
{"type":"Feature","geometry":{"type":"Point","coordinates":[11.347838433685975,52.22071229873301]},"properties":{"NAME_1":"Sachsen-Anhalt","NAME_2":"Börde"}},
{"type":"Feature","geometry":{"type":"Point","coordinates":[11.883422428794809,51.14722563332549]},"properties":{"NAME_1":"Sachsen-Anhalt","NAME_2":"Burgenlandkreis"}},
{"type":"Feature","geometry":{"type":"Point","coordinates":[12.231055960114723,51.85373808905257]},"properties":{"NAME_1":"Sachsen-Anhalt","NAME_2":"Dessau-Roßlau"}},
{"type":"Feature","geometry":{"type":"Point","coordinates":[11.96849683397385,51.479801909303006]},"properties":{"NAME_1":"Sachsen-Anhalt","NAME_2":"Halle (Saale)"}},
{"type":"Feature","geometry":{"type":"Point","coordinates":[10.958543822176317,51.82129588885311]},"properties":{"NAME_1":"Sachsen-Anhalt","NAME_2":"Harz"}},
{"type":"Feature","geometry":{"type":"Point","coordinates":[12.02651883693431,52.2607898274979]},"properties":{"NAME_1":"Sachsen-Anhalt","NAME_2":"Jerichower Land"}},
{"type":"Feature","geometry":{"type":"Point","coordinates":[11.641482023112363,52.11659764256786]},"properties":{"NAME_1":"Sachsen-Anhalt","NAME_2":"Magdeburg"}},
{"type":"Feature","geometry":{"type":"Point","coordinates":[11.35635847340733,51.53569017785433]},"properties":{"NAME_1":"Sachsen-Anhalt","NAME_2":"Mansfeld-Südharz"}},
{"type":"Feature","geometry":{"type":"Point","coordinates":[11.865474037212515,51.42567107699025]},"properties":{"NAME_1":"Sachsen-Anhalt","NAME_2":"Saalekreis"}},
{"type":"Feature","geometry":{"type":"Point","coordinates":[11.642725620236465,51.851859191174576]},"properties":{"NAME_1":"Sachsen-Anhalt","NAME_2":"Salzlandkreis"}},
{"type":"Feature","geometry":{"type":"Point","coordinates":[11.839534353141735,52.69677817369149]},"properties":{"NAME_1":"Sachsen-Anhalt","NAME_2":"Stendal"}},
{"type":"Feature","geometry":{"type":"Point","coordinates":[12.701588239641922,51.820140067304685]},"properties":{"NAME_1":"Sachsen-Anhalt","NAME_2":"Wittenberg"}},
{"type":"Feature","geometry":{"type":"Point","coordinates":[9.107814478641853,54.132910961424194]},"properties":{"NAME_1":"Schleswig-Holstein","NAME_2":"Dithmarschen"}},
{"type":"Feature","geometry":{"type":"Point","coordinates":[9.438528353848527,54.7849933769712]},"properties":{"NAME_1":"Schleswig-Holstein","NAME_2":"Flensburg"}},
{"type":"Feature","geometry":{"type":"Point","coordinates":[10.601859221656632,53.589002420463004]},"properties":{"NAME_1":"Schleswig-Holstein","NAME_2":"Herzogtum Lauenburg"}},
{"type":"Feature","geometry":{"type":"Point","coordinates":[10.132244364421817,54.32484069180153]},"properties":{"NAME_1":"Schleswig-Holstein","NAME_2":"Kiel"}},
{"type":"Feature","geometry":{"type":"Point","coordinates":[10.727283106715356,53.872316734047445]},"properties":{"NAME_1":"Schleswig-Holstein","NAME_2":"Lübeck"}},
{"type":"Feature","geometry":{"type":"Point","coordinates":[9.984481954569478,54.0811244368841]},"properties":{"NAME_1":"Schleswig-Holstein","NAME_2":"Neumünster"}},
{"type":"Feature","geometry":{"type":"Point","coordinates":[8.886887792997644,54.60956399926246]},"properties":{"NAME_1":"Schleswig-Holstein","NAME_2":"Nordfriesland"}},
{"type":"Feature","geometry":{"type":"Point","coordinates":[10.819427020525776,54.18964902769701]},"properties":{"NAME_1":"Schleswig-Holstein","NAME_2":"Ostholstein"}},
{"type":"Feature","geometry":{"type":"Point","coordinates":[9.736866701598377,53.71808406457554]},"properties":{"NAME_1":"Schleswig-Holstein","NAME_2":"Pinneberg"}},
{"type":"Feature","geometry":{"type":"Point","coordinates":[10.363695157458057,54.24338859417217]},"properties":{"NAME_1":"Schleswig-Holstein","NAME_2":"Plön"}},
{"type":"Feature","geometry":{"type":"Point","coordinates":[9.781742068065771,54.289615735971694]},"properties":{"NAME_1":"Schleswig-Holstein","NAME_2":"Rendsburg-Eckernförde"}},
{"type":"Feature","geometry":{"type":"Point","coordinates":[9.488709214889216,54.619019564464935]},"properties":{"NAME_1":"Schleswig-Holstein","NAME_2":"Schleswig-Flensburg"}},
{"type":"Feature","geometry":{"type":"Point","coordinates":[10.140914719679106,53.91998574452828]},"properties":{"NAME_1":"Schleswig-Holstein","NAME_2":"Segeberg"}},
{"type":"Feature","geometry":{"type":"Point","coordinates":[9.519381895504857,53.928945188661494]},"properties":{"NAME_1":"Schleswig-Holstein","NAME_2":"Steinburg"}},
{"type":"Feature","geometry":{"type":"Point","coordinates":[10.331639881921769,53.72080057270904]},"properties":{"NAME_1":"Schleswig-Holstein","NAME_2":"Stormarn"}},
{"type":"Feature","geometry":{"type":"Point","coordinates":[12.399131341946873,50.95642466133811]},"properties":{"NAME_1":"Thüringen","NAME_2":"Altenburger Land"}},
{"type":"Feature","geometry":{"type":"Point","coordinates":[10.253485391219144,51.38364919790423]},"properties":{"NAME_1":"Thüringen","NAME_2":"Eichsfeld"}},
{"type":"Feature","geometry":{"type":"Point","coordinates":[10.300102318376842,50.989676062289185]},"properties":{"NAME_1":"Thüringen","NAME_2":"Eisenach"}},
{"type":"Feature","geometry":{"type":"Point","coordinates":[11.020224806180178,50.983252690673254]},"properties":{"NAME_1":"Thüringen","NAME_2":"Erfurt"}},
{"type":"Feature","geometry":{"type":"Point","coordinates":[12.082696187954221,50.894017077080065]},"properties":{"NAME_1":"Thüringen","NAME_2":"Gera"}},
{"type":"Feature","geometry":{"type":"Point","coordinates":[10.693762715015453,50.91066058013236]},"properties":{"NAME_1":"Thüringen","NAME_2":"Gotha"}},
{"type":"Feature","geometry":{"type":"Point","coordinates":[12.07407057279098,50.74845955358932]},"properties":{"NAME_1":"Thüringen","NAME_2":"Greiz"}},
{"type":"Feature","geometry":{"type":"Point","coordinates":[10.73409041007169,50.43400274869527]},"properties":{"NAME_1":"Thüringen","NAME_2":"Hildburghausen"}},
{"type":"Feature","geometry":{"type":"Point","coordinates":[10.966357491135986,50.7379337618022]},"properties":{"NAME_1":"Thüringen","NAME_2":"Ilm-Kreis"}},
{"type":"Feature","geometry":{"type":"Point","coordinates":[11.587011253803974,50.924263803258675]},"properties":{"NAME_1":"Thüringen","NAME_2":"Jena"}},
{"type":"Feature","geometry":{"type":"Point","coordinates":[10.98483319979521,51.324763075768395]},"properties":{"NAME_1":"Thüringen","NAME_2":"Kyffhäuserkreis"}},
{"type":"Feature","geometry":{"type":"Point","coordinates":[10.730906738632825,51.50227797543098]},"properties":{"NAME_1":"Thüringen","NAME_2":"Nordhausen"}},
{"type":"Feature","geometry":{"type":"Point","coordinates":[11.731530781706603,50.90417213722477]},"properties":{"NAME_1":"Thüringen","NAME_2":"Saale-Holzland-Kreis"}},
{"type":"Feature","geometry":{"type":"Point","coordinates":[11.710573733511213,50.58084802041973]},"properties":{"NAME_1":"Thüringen","NAME_2":"Saale-Orla-Kreis"}},
{"type":"Feature","geometry":{"type":"Point","coordinates":[11.309116250177361,50.63779795889373]},"properties":{"NAME_1":"Thüringen","NAME_2":"Saalfeld-Rudolstadt"}},
{"type":"Feature","geometry":{"type":"Point","coordinates":[10.405043407793784,50.63070768644544]},"properties":{"NAME_1":"Thüringen","NAME_2":"Schmalkalden-Meiningen"}},
{"type":"Feature","geometry":{"type":"Point","coordinates":[11.154751181372816,51.15780806395092]},"properties":{"NAME_1":"Thüringen","NAME_2":"Sömmerda"}},
{"type":"Feature","geometry":{"type":"Point","coordinates":[11.132952655404393,50.41463054968694]},"properties":{"NAME_1":"Thüringen","NAME_2":"Sonneberg"}},
{"type":"Feature","geometry":{"type":"Point","coordinates":[10.688177564177519,50.61160285310841]},"properties":{"NAME_1":"Thüringen","NAME_2":"Suhl"}},
{"type":"Feature","geometry":{"type":"Point","coordinates":[10.551795560846447,51.185238707907175]},"properties":{"NAME_1":"Thüringen","NAME_2":"Unstrut-Hainich-Kreis"}},
{"type":"Feature","geometry":{"type":"Point","coordinates":[10.210703948376114,50.88580170139139]},"properties":{"NAME_1":"Thüringen","NAME_2":"Wartburgkreis"}},
{"type":"Feature","geometry":{"type":"Point","coordinates":[11.317872275418418,50.97834716868616]},"properties":{"NAME_1":"Thüringen","NAME_2":"Weimar"}},
{"type":"Feature","geometry":{"type":"Point","coordinates":[11.373553266622054,50.971571995590374]},"properties":{"NAME_1":"Thüringen","NAME_2":"Weimarer Land"}}
]}